geonameid,name,asciiname,country_code,latitude,longitude,population,elevation
726050,Varna,Varna,BG,43.21912,27.91024,312770,
727523,Ruse,Ruse,BG,43.84872,25.9534,143417,
728203,Pleven,Pleven,BG,43.41791,24.61666,100952,
726418,Dobrich,Dobrich,BG,43.56491,27.83138,79269,
727233,Shumen,Shumen,BG,43.27064,26.92286,72342,
725712,Vratsa,Vratsa,BG,43.21052,23.56312,64941,
729114,Montana,Montana,BG,43.41285,23.22174,47445,
725905,Vidin,Vidin,BG,43.99159,22.88236,40422,
727696,Razgrad,Razgrad,BG,43.53331,26.51849,38285,
726534,Svishtov,Svishtov,BG,43.61875,25.35033,30157,
727221,Silistra,Silistra,BG,44.1171,27.26056,29498,
733606,Asparuhovo,Asparuhovo,BG,43.18067,27.88823,27000,
729581,Lom,Lom,BG,43.8317,23.23793,26594,
733264,Berkovitsa,Berkovitsa,BG,43.23741,23.12509,15027,
730013,Kozloduy,Kozloduy,BG,43.77691,23.73001,14717,
727921,Provadia,Provadia,BG,43.18333,27.43333,13755,
728734,Novi Pazar,Novi Pazar,BG,43.35,27.2,13276,
732491,Cherven Bryag,Cherven Bryag,BG,43.27884,24.08251,13000,
733515,Balchik,Balchik,BG,43.42166,28.15848,13000,
729134,Mezdra,Mezdra,BG,43.15,23.7,11975,
729636,Levski,Levski,BG,43.36667,25.13333,11467,
730518,Kavarna,Kavarna,BG,43.43601,28.33953,11205,
732704,Byala Slatina,Byala Slatina,BG,43.46667,23.93333,10282,
726141,Tutrakan,Tutrakan,BG,44.04906,26.61206,10022,
729507,Lukovit,Lukovit,BG,43.2,24.16667,9792,
733359,Belene,Belene,BG,43.65062,25.1343,9781,
6355004,Zlatni Pyasatsi,Zlatni Pyasatsi,BG,43.285,28.0418,9760,
730866,Isperih,Isperih,BG,43.71667,26.83333,9735,
729839,Kubrat,Kubrat,BG,43.79658,26.50063,8980,
726524,Svoge,Svoge,BG,42.96667,23.35,8964,
732280,Devnya,Devnya,BG,43.22222,27.56944,8171,
725213,Beloslav,Beloslav,BG,43.18717,27.70352,7989,
731464,General Toshevo,General Toshevo,BG,43.70123,28.03787,7758,
727069,Slivnitsa,Slivnitsa,BG,42.85182,23.03792,7545,
725623,Varshets,Varshets,BG,43.19356,23.2868,7512,
731453,Dolni Chiflik,Dolni Chiflik,BG,42.99296,27.71596,7169,
733716,Aksakovo,Aksakovo,BG,43.25907,27.81755,7132,
730287,Knezha,Knezha,BG,43.5,24.08333,6889,
726474,Tervel,Tervel,BG,43.74789,27.40911,6808,
731818,Dulovo,Dulovo,BG,43.81667,27.15,6788,
728565,Oryahovo,Oryahovo,BG,43.73805,23.95874,5706,
733309,Belogradchik,Belogradchik,BG,43.62722,22.68361,5688,
731822,Dalgopol,Dalgopol,BG,43.05,27.35,5272,
732099,Dolni Dabnik,Dolni Dabnik,BG,43.4,24.43333,5259,
725683,Valchedram,Valchedram,BG,43.69281,23.44518,5207,
725935,Vetovo,Vetovo,BG,43.7,26.26667,5175,
731384,Godech,Godech,BG,43.01682,23.04852,5154,
727087,Slavyanovo,Slavyanovo,BG,43.46667,24.86667,4793,
726591,Suvorovo,Suvorovo,BG,43.33058,27.59908,4563,
731771,Dve Mogili,Dve Mogili,BG,43.59258,25.87486,4526,
728348,Iskar,Iskar,BG,43.45963,24.25739,4329,
728782,Nikopol,Nikopol,BG,43.70528,24.89521,4137,
730415,Tsar Kaloyan,Tsar Kaloyan,BG,43.61667,26.25,3994,
727329,Shabla,Shabla,BG,43.53983,28.53429,3901,
725816,Sveti Vlas,Sveti Vlas,BG,42.7136,27.75867,3875,50
731961,Dragoman,Dragoman,BG,42.92191,22.93109,3814,
729825,Kula,Kula,BG,43.8879,22.52241,3738,
729040,Mizia,Mizia,BG,43.68623,23.85371,3712,
725679,Valchidol,Valchidol,BG,43.4,27.55,3697,
729909,Krivodol,Krivodol,BG,43.37444,23.48444,3651,
730542,Kaspichan,Kaspichan,BG,43.31667,27.16667,3635,
725435,Zavet,Zavet,BG,43.76036,26.68063,3589,
730982,Gulyantsi,Gulyantsi,BG,43.64109,24.69368,3589,
727598,Roman,Roman,BG,43.15,23.91667,3571,
729646,Letnitsa,Letnitsa,BG,43.31167,25.07333,3528,
732122,Dolna Mitropolia,Dolna Mitropolia,BG,43.46667,24.53333,3479,
731809,Dunavtsi,Dunavtsi,BG,43.92111,22.82111,3371,
727067,Slivo Pole,Slivo Pole,BG,43.94248,26.20464,3252,
725611,Yablanitsa,Yablanitsa,BG,43.02813,24.10244,3237,
726307,Tran,Tran,BG,42.83528,22.65167,3102,
728631,Opaka,Opaka,BG,43.45,26.16667,3002,
733058,Borovan,Borovan,BG,43.42959,23.75331,2941,
730040,Koynare,Koynare,BG,43.35,24.13333,2926,
732915,Bregovo,Bregovo,BG,44.15191,22.63877,2892,
729174,Medkovets,Medkovets,BG,43.62403,23.16876,2690,
725588,Yakimovo,Yakimovo,BG,43.63472,23.3535,2665,
727759,Ravda,Ravda,BG,42.64185,27.67713,2556,
733043,Borovo,Borovo,BG,43.49802,25.8082,2467,
732721,Byala,Byala,BG,42.87426,27.88865,2327,
727455,Samuil,Samuil,BG,43.51667,26.75,2283,
728056,Pordim,Pordim,BG,43.38333,24.85,2230,
726245,Tsenovo,Tsenovo,BG,43.53588,25.65764,2229,
730425,Hayredin,Hayredin,BG,43.60193,23.66135,2228,
731415,Glavinitsa,Glavinitsa,BG,43.91667,26.83333,2220,
732986,Boychinovtsi,Boychinovtsi,BG,43.47058,23.33499,2181,
7874334,Aheloy,Aheloy,BG,42.64987,27.64838,2112,
728674,Obzor,Obzor,BG,42.81998,27.88007,2002,
732456,Chiprovtsi,Chiprovtsi,BG,43.38417,22.88083,1941,
733679,Alfatar,Alfatar,BG,43.94691,27.28587,1916,
731056,Gramada,Gramada,BG,43.83738,22.65279,1872,
732862,Brusartsi,Brusartsi,BG,43.66325,23.06692,1734,
729880,Krushari,Krushari,BG,43.81675,27.75552,1722,
728709,Novo Selo,Novo Selo,BG,44.16214,22.78376,1574,
730651,Kaolinovo,Kaolinovo,BG,43.61667,27.11667,1537,
732253,Dimovo,Dimovo,BG,43.74167,22.72694,1461,
727358,Senovo,Senovo,BG,43.65,26.36667,1459,
725967,Venets,Venets,BG,43.55,26.93333,1450,
8604898,Balgarevo,Balgarevo,BG,43.40296,28.41189,1375,
725924,Vetrino,Vetrino,BG,43.31667,27.43333,1368,
731520,Gara Hitrino,Gara Hitrino,BG,43.43333,26.91667,1302,
727495,Ruzhintsi,Ruzhintsi,BG,43.62179,22.83286,1269,
728199,Pliska,Pliska,BG,43.36667,27.11667,1263,
733434,Bata,Bata,BG,42.73816,27.49722,1235,155
727175,Sitovo,Sitovo,BG,44.0273,27.01982,1140,
730337,Kiten,Kiten,BG,43.08333,27.31667,1115,
730504,Kaynardzha,Kaynardzha,BG,43.99278,27.50713,1107,
730852,Ivanovo,Ivanovo,BG,43.68568,25.95565,1031,
728791,Nikola-Kozlevo,Nikola-Kozlevo,BG,43.56667,27.23333,988,
733165,Bliznatsi,Bliznatsi,BG,43.06192,27.86797,940,
729984,Kranevo,Kranevo,BG,43.34157,28.05759,922,
732973,Boynitsa,Boynitsa,BG,43.9573,22.53238,884,
733587,Avren,Avren,BG,43.11667,27.66667,883,
732400,Chuprene,Chuprene,BG,43.51806,22.66611,842,
731458,Georgi Damyanovo,Georgi Damyanovo,BG,43.38611,23.03056,748,
729401,Makresh,Makresh,BG,43.76794,22.66406,660,
726434,Tochilari,Tochilari,BG,43.85,26.46667,0,
726954,Spasovo,Spasovo,BG,43.70168,28.30399,0,
729170,Medovene,Medovene,BG,43.76667,26.51667,0,
729722,Lakatnik,Lakatnik,BG,43.05,23.4,0,
730873,Iskar,Iskar,BG,43.6708,24.45233,0,
731268,Gorichevo,Gorichevo,BG,43.85,26.45,0,
733001,Bov,Bov,BG,43.03257,23.37751,0,
