geonameid,name,asciiname,country_code,latitude,longitude,population,elevation
792680,Belgrade,Belgrade,RS,44.80401,20.46513,1273651,
787657,Niš,Nis,RS,43.32472,21.90333,250000,
3194360,Novi Sad,Novi Sad,RS,45.25167,19.83694,215400,
783920,Zemun,Zemun,RS,44.8458,20.40116,155591,
789128,Kragujevac,Kragujevac,RS,44.01667,20.91667,147473,
3189595,Subotica,Subotica,RS,46.1,19.66667,100000,
788709,Leskovac,Leskovac,RS,42.99806,21.94611,94758,
783814,Zrenjanin,Zrenjanin,RS,45.38361,20.38194,79773,
787237,Pančevo,Pancevo,RS,44.87177,20.64167,76654,
785756,Smederevo,Smederevo,RS,44.66436,20.92763,62000,
784024,Zaječar,Zajecar,RS,43.90358,22.26405,49800,
3190342,Sombor,Sombor,RS,45.77417,19.11222,48454,
789518,Kikinda,Kikinda,RS,45.82972,20.46528,41935,
786827,Požarevac,Pozarevac,RS,44.62133,21.18782,41736,
787050,Pirot,Pirot,RS,43.15306,22.58611,40678,
792456,Bor,Bor,RS,44.07488,22.09591,39387,
784136,Vršac,Vrsac,RS,45.11667,21.30361,36300,
789923,Jagodina,Jagodina,RS,43.97713,21.26121,35589,
785753,Smederevska Palanka,Smederevska Palanka,RS,44.36548,20.95885,27000,119
3187297,Vrbas,Vrbas,RS,45.57139,19.64083,25907,
792814,Bečej,Becej,RS,45.61632,20.03331,25774,
6619277,Knjazevac,Knjazevac,RS,43.56634,22.25701,25000,217
785615,Sremčica,Sremcica,RS,44.67653,20.39232,23000,
791678,Ćuprija,Cuprija,RS,43.9275,21.37,20585,
785965,Senta,Senta,RS,45.9275,20.07722,20302,
3204793,Apatin,Apatin,RS,45.6726,18.978,18320,
3200802,Futog,Futog,RS,45.23874,19.71416,18018,
787718,Negotin,Negotin,RS,44.22639,22.53083,17612,
3204672,Bačka Topola,Backa Topola,RS,45.81516,19.6318,16154,
789168,Kovin,Kovin,RS,44.7475,20.97611,14250,
3190104,Sremska Kamenica,Sremska Kamenica,RS,45.22334,19.84263,14205,
3193406,Petrovaradin,Petrovaradin,RS,45.24667,19.87944,13917,
785288,Surčin,Surcin,RS,44.79306,20.28028,12575,
3198513,Kać,Kac,RS,45.30407,19.94299,11067,
786287,Ripanj,Ripanj,RS,44.63864,20.52136,11000,
792794,Bela Crkva,Bela Crkva,RS,44.8975,21.41722,10675,
3187829,Veternik,Veternik,RS,45.25446,19.7588,10226,
789600,Kanjiža,Kanjiza,RS,46.06667,20.05,10200,
788357,Majdanpek,Majdanpek,RS,44.42771,21.94596,10071,
791672,Čurug,Curug,RS,45.47221,20.06861,9231,
784170,Vrčin,Vrcin,RS,44.66845,20.59325,9088,
793014,Bačko Petrovo Selo,Backo Petrovo Selo,RS,45.70681,20.07928,8959,
3202318,Crvenka,Crvenka,RS,45.66098,19.45435,8532,
837364,Padinska Skela,Padinska Skela,RS,44.94291,20.42549,8519,
784068,Žabalj,Zabalj,RS,45.37222,20.06389,8503,
787600,Novi Kneževac,Novi Knezevac,RS,46.05,20.1,8166,
787855,Mol,Mol,RS,45.76457,20.13286,7950,
787584,Novo Miloševo,Novo Milosevo,RS,45.71916,20.30364,7805,
788040,Melenci,Melenci,RS,45.5168,20.31961,7685,
791471,Dobanovci,Dobanovci,RS,44.82631,20.22487,7592,
788792,Lapovo,Lapovo,RS,44.18424,21.09727,7422,
789178,Kovačica,Kovacica,RS,45.11167,20.62139,7357,
3204665,Bački Petrovac,Backi Petrovac,RS,45.36056,19.59167,7229,
785544,Starčevo,Starcevo,RS,44.80729,20.70546,6661,
784427,Vinča,Vinca,RS,44.75907,20.61747,6580,
787857,Mokrin,Mokrin,RS,45.93362,20.41215,6567,
791589,Debeljača,Debeljaca,RS,45.0707,20.60153,6413,
787271,Padina,Padina,RS,45.11988,20.7286,6367,
792945,Banatski Karlovac,Banatski Karlovac,RS,45.04987,21.018,6319,
785062,Titel,Titel,RS,45.20611,20.29444,6227,
787215,Paraćin,Paracin,RS,43.86083,21.40778,6000,
3190335,Sonta,Sonta,RS,45.59427,19.09719,5991,
793015,Bačko Gradište,Backo Gradiste,RS,45.53271,20.03082,5764,
784764,Umka,Umka,RS,44.67806,20.30472,5618,
3190042,Stanišić,Stanisic,RS,45.93895,19.16709,5476,
3193678,Palić,Palic,RS,46.10646,19.75647,5476,
785603,Srpska Crnja,Srpska Crnja,RS,45.72538,20.69008,5467,
791900,Čoka,Coka,RS,45.9425,20.14333,5414,
791887,Crepaja,Crepaja,RS,45.00984,20.63702,5369,
790847,Ečka,Ecka,RS,45.32328,20.44294,5293,
789170,Kovilj,Kovilj,RS,45.23422,20.02327,5279,
784352,Vladimirovac,Vladimirovac,RS,45.03122,20.86566,5106,
792819,Bavanište,Bavaniste,RS,44.81907,20.87654,5082,
792866,Barič,Baric,RS,44.6507,20.25941,5033,
3192420,Prigrevica,Prigrevica,RS,45.67636,19.08809,5026,
3202798,Čelarevo,Celarevo,RS,45.26999,19.52484,5017,
790842,Elemir,Elemir,RS,45.44263,20.30003,4998,
786175,Rušanj,Rusanj,RS,44.68477,20.44993,4769,
787461,Opovo,Opovo,RS,45.05222,20.43028,4769,
790898,Ðurđevo,Durdevo,RS,45.32591,20.06532,4668,
789912,Jakovo,Jakovo,RS,44.75366,20.26008,4656,
3191397,Ruski Krstur,Ruski Krstur,RS,45.56392,19.42002,4585,
3186376,Zmajevo,Zmajevo,RS,45.45408,19.6905,4547,
3191425,Rumenka,Rumenka,RS,45.294,19.74306,4367,
788890,Kumane,Kumane,RS,45.53946,20.22902,4321,
792807,Torak,Torak,RS,45.50928,20.609,4289,
787123,Perlez,Perlez,RS,45.20813,20.38197,4283,
787032,Plandište,Plandiste,RS,45.22722,21.12167,4122,
784771,Uljma,Uljma,RS,45.04213,21.15393,4115,
787306,Ostružnica,Ostruznica,RS,44.72769,20.31845,4060,
792467,Boljevci,Boljevci,RS,44.72355,20.22348,3990,
3200859,Feketić,Feketic,RS,45.66431,19.69974,3980,
784745,Uzdin,Uzdin,RS,45.20512,20.62342,3885,
792851,Bašaid,Basaid,RS,45.64102,20.41434,3864,
793112,Aradac,Aradac,RS,45.38346,20.30137,3825,
793134,Alibunar,Alibunar,RS,45.08083,20.96583,3803,
836698,Rusko Selo,Rusko Selo,RS,45.76291,20.57117,3657,
789875,Jaša Tomić,Jasa Tomic,RS,45.44725,20.85546,3625,
3191802,Ravno Selo,Ravno Selo,RS,45.44967,19.62097,3574,
786142,Šajkaš,Sajkas,RS,45.27315,20.09051,3541,
788507,Lokve,Lokve,RS,45.15198,21.03073,3511,
788768,Lazarevo,Lazarevo,RS,45.38893,20.53999,3480,
787274,Padej,Padej,RS,45.82756,20.16279,3465,
3191877,Ratkovo,Ratkovo,RS,45.45566,19.33728,3411,
787341,Ostojićevo,Ostojicevo,RS,45.88863,20.16642,3395,
792937,Banatsko Veliko Selo,Banatsko Veliko Selo,RS,45.81961,20.60772,3332,
788439,Lugavčina,Lugavcina,RS,44.52314,21.07083,3300,
785600,Srpski Itebej,Srpski Itebej,RS,45.56715,20.7135,3281,
784779,Ugrinovci,Ugrinovci,RS,44.87635,20.18763,3278,
3196959,Kulpin,Kulpin,RS,45.4024,19.58814,3207,
791998,Čenta,Centa,RS,45.10814,20.38947,3192,
3191660,Riđica,Rigica,RS,45.99088,19.10635,3186,
3194243,Obrovac,Obrovac,RS,45.32106,19.35048,3177,
3196185,Lovćenac,Lovcenac,RS,45.6816,19.69205,3161,
784604,Aleksandrovo,Aleksandrovo,RS,45.63755,20.59288,3061,
783887,Žitište,Zitiste,RS,45.485,20.54972,3060,
784236,Vranić,Vranic,RS,44.60237,20.32872,3044,
786498,Ralja,Ralja,RS,44.57222,20.56222,2933,
792940,Banatsko Karađorđevo,Banatsko Karagorgevo,RS,45.58693,20.56421,2855,
786021,Sefkerin,Sefkerin,RS,45.00501,20.48256,2836,
784635,Velika Moštanica,Velika Mostanica,RS,44.66486,20.35395,2751,
787621,Nova Crnja,Nova Crnja,RS,45.66833,20.605,2739,
3195939,Maglić,Maglic,RS,45.36248,19.53211,2733,
786035,Sečanj,Secanj,RS,45.36667,20.77222,2718,
784991,Torda,Torda,RS,45.58423,20.459,2697,
3196910,Kupusina,Kupusina,RS,45.73759,19.01082,2694,
787598,Novi Kozarci,Novi Kozarci,RS,45.78241,20.62289,2668,
786283,Ritopek,Ritopek,RS,44.73849,20.65499,2613,
787743,Nakovo,Nakovo,RS,45.87503,20.56709,2604,
792404,Botoš,Botos,RS,45.30837,20.63514,2569,
787296,Ovča,Ovca,RS,44.88349,20.53336,2567,
790394,Gornji Breg,Gornji Breg,RS,45.91995,20.01766,2536,
789124,Krajišnik,Krajisnik,RS,45.45283,20.72976,2495,
792811,Bečmen,Becmen,RS,44.77983,20.20577,2494,
3200560,Gložan,Glozan,RS,45.27954,19.56838,2487,
787837,Mošorin,Mosorin,RS,45.30196,20.16919,2483,
790028,Ilandža,Ilandza,RS,45.16897,20.92008,2426,
791175,Donji Milanovac,Donji Milanovac,RS,44.46593,22.1517,2410,
3186633,Novi Žednik,Novi Zednik,RS,45.94117,19.67141,2381,
789471,Klek,Klek,RS,45.42254,20.48049,2344,
790035,Iđoš,Idos,RS,45.82648,20.31791,2338,
3203822,Bogojevo,Bogojevo,RS,45.53015,19.13022,2312,
789880,Jarkovac,Jarkovac,RS,45.26985,20.76078,2291,
786137,Sakule,Sakule,RS,45.14667,20.48619,2280,
792479,Boka,Boka,RS,45.3554,20.82987,2246,
789415,Knićanin,Knicanin,RS,45.18675,20.319,2226,
788421,Lukićevo,Lukicevo,RS,45.33815,20.49895,2186,
787391,Orlovat,Orlovat,RS,45.24171,20.58089,2159,
785041,Tomaševac,Tomasevac,RS,45.26855,20.62272,2149,
785252,Sutjeska,Sutjeska,RS,45.38312,20.6962,2145,
787164,Pavliš,Pavlis,RS,45.10569,21.23952,2137,
3201353,Doroslovo,Doroslovo,RS,45.60699,19.18868,2131,
3202757,Čenej,Cenej,RS,45.36826,19.80423,2125,
3200746,Gakovo,Gakovo,RS,45.90078,19.06138,2122,
792530,Bočar,Bocar,RS,45.76994,20.2839,2095,
789972,Izbište,Izbiste,RS,45.02253,21.18388,2094,
3202059,Despotovo,Despotovo,RS,45.45983,19.52653,2077,
784274,Vojvoda Stepa,Vojvoda Stepa,RS,45.68537,20.65536,2032,
791452,Dobrica,Dobrica,RS,45.21339,20.84995,2006,
783796,Zuce,Zuce,RS,44.69806,20.55524,2001,
3189891,Stepanovićevo,Stepanovicevo,RS,45.41369,19.7,1999,
785598,Stajićevo,Stajicevo,RS,45.29489,20.45845,1993,
792948,Banatski Despotovac,Banatski Despotovac,RS,45.36606,20.66407,1993,
3215933,Stari Žednik,Stari Zednik,RS,45.94864,19.63029,1947,
787663,Nikolinci,Nikolinci,RS,45.05245,21.06695,1905,
3197862,Kolut,Kolut,RS,45.89292,18.9276,1886,
786583,Radojevo,Radojevo,RS,45.74617,20.78917,1872,
790983,Duboka,Duboka,RS,44.52281,21.75987,1804,
3204670,Bački Breg,Backi Breg,RS,45.92034,18.92944,1770,
786001,Seleuš,Seleus,RS,45.1277,20.91461,1765,
792718,Belo Blato,Belo Blato,RS,45.27278,20.375,1746,
784519,Veliko Središte,Veliko Srediste,RS,45.17919,21.40353,1698,
790823,Farkaždin,Farkazdin,RS,45.19172,20.47239,1662,
786109,Samoš,Samos,RS,45.20255,20.77392,1658,
787682,Neuzina,Neuzina,RS,45.3446,20.71418,1657,
786395,Ravni Topolovac,Ravni Topolovac,RS,45.46082,20.56939,1656,
792888,Baranda,Baranda,RS,45.08459,20.44264,1656,
786146,Sajan,Sajan,RS,45.84227,20.27815,1655,
790560,Golubac,Golubac,RS,44.65296,21.63199,1655,
788073,Međa,Mega,RS,45.53815,20.80677,1636,
784653,Velika Ivanča,Velika Ivanca,RS,44.42639,20.58028,1585,
784661,Velika Greda,Velika Greda,RS,45.24376,21.03498,1585,
786106,Sanad,Sanad,RS,45.97596,20.10816,1584,
791948,Čestereg,Cestereg,RS,45.56361,20.53194,1581,
787602,Novi Itebej,Novi Itebej,RS,45.55918,20.7003,1553,
788153,Margita,Margita,RS,45.21598,21.17527,1550,
3198140,Kisač,Kisac,RS,45.35421,19.72975,1545,
786615,Radenka,Radenka,RS,44.58345,21.76469,1541,
790063,Hajdučica,Hajducica,RS,45.2501,20.96016,1519,
790772,Gardinovci,Gardinovci,RS,45.20359,20.13558,1515,
788515,Lok,Lok,RS,45.21583,20.21222,1509,
792950,Banatska Topola,Banatska Topola,RS,45.67248,20.4653,1463,
789787,Jermenovci,Jermenovci,RS,45.18635,21.0455,1454,
790104,Gudurica,Gudurica,RS,45.16816,21.44264,1448,
790033,Idvor,Idvor,RS,45.18895,20.51442,1442,
788243,Mali Požarevac,Mali Pozarevac,RS,44.56327,20.65433,1391,
792946,Banatski Dvor,Banatski Dvor,RS,45.51866,20.51146,1374,
789888,Janošik,Janosik,RS,45.17141,21.00658,1372,
784344,Vlajkovac,Vlajkovac,RS,45.07207,21.19945,1356,
785530,Stari Lec,Stari Lec,RS,45.28401,20.96433,1341,
785287,Surduk,Surduk,RS,45.07118,20.3251,1332,
785125,Taraš,Taras,RS,45.46737,20.19867,1328,
787998,Mihajlovo,Mihajlovo,RS,45.47085,20.41508,1318,
789828,Jazovo,Jazovo,RS,45.89876,20.2213,1261,
785941,Ševica,Sevica,RS,44.50883,21.72296,1249,
792453,Borča,Borca,RS,44.86969,20.45413,1246,
788329,Mala Ivanča,Mala Ivanca,RS,44.58961,20.61634,1222,
789346,Konak,Konak,RS,45.31575,20.91468,1211,
787747,Adorjan,Adorjan,RS,46.00333,20.04007,1203,
788838,Kuštilj,Kustilj,RS,45.03487,21.37989,1189,
787597,Kozjak,Kozjak,RS,45.18264,20.86381,1170,
790053,Hetin,Hetin,RS,45.66202,20.79138,1139,
788315,Mala Moštanica,Mala Mostanica,RS,44.63834,20.306,1125,
789918,Jajinci,Jajinci,RS,44.74061,20.48634,1105,
785053,Toba,Toba,RS,45.68943,20.55714,1099,
784434,Vilovo,Vilovo,RS,45.24859,20.15521,1089,
792864,Barice,Barice,RS,45.18189,21.08279,1044,
784588,Veliki Gaj,Veliki Gaj,RS,45.28849,21.17057,1039,
784820,Turija,Turija,RS,44.52273,21.63945,1039,
790698,Glogovac,Glogovac,RS,44.04213,21.3134,1000,
792277,Brezovica,Brezovica,RS,42.95229,22.17869,1000,
790981,Donja Dubona,Donja Dubona,RS,44.52136,20.7268,988,
786284,Ritiševo,Ritisevo,RS,45.06454,21.2281,954,
8520912,Dolac naselje,Dolac naselje,RS,43.29511,22.20626,855,270
789891,Jankov Most,Jankov Most,RS,45.47498,20.43835,841,
787972,Miletićevo,Mileticevo,RS,45.30508,21.06404,811,
837365,Kovilovo,Kovilovo,RS,44.90791,20.42319,808,
784271,Vojvodinci,Vojvodinci,RS,45.01557,21.34793,727,
788139,Markovac,Markovac,RS,45.14964,21.47242,717,
788420,Lukino Selo,Lukino Selo,RS,45.30244,20.42632,703,
791864,Crna Bara,Crna Bara,RS,45.97326,20.27614,678,
784190,Vrbica,Vrbica,RS,46.00584,20.31325,654,
792953,Banatska Dubica,Banatska Dubica,RS,45.27146,20.82833,566,
788224,Mali Žam,Mali Zam,RS,45.20979,21.33729,565,
788872,Kupinik,Kupinik,RS,45.29254,21.13702,545,
790776,Gamzigrad,Gamzigrad,RS,43.90873,22.17507,537,
789942,Jablanka,Jablanka,RS,45.07524,21.39067,536,
783880,Žitorađa,Zitoraga,RS,43.19,21.71306,0,
784031,Žagubica,Zagubica,RS,44.19685,21.78838,0,
784064,Žabari,Zabari,RS,44.35611,21.215,0,
784252,Vračar,Vracar,RS,44.79256,20.47491,0,
784318,Vlasotince,Vlasotince,RS,42.96697,22.13402,0,
784535,Veliko Gradište,Veliko Gradiste,RS,44.76329,21.51646,0,
784630,Velika Plana,Velika Plana,RS,44.33389,21.07676,0,
785013,Topola,Topola,RS,44.25417,20.6825,0,
785164,Svrljig,Svrljig,RS,43.41333,22.12111,0,
785184,Svilajnac,Svilajnac,RS,44.2337,21.1967,0,
785671,Sopot,Sopot,RS,44.51972,20.57361,0,
785704,Soko Banja,Soko Banja,RS,43.64333,21.87111,0,
786358,Rekovac,Rekovac,RS,43.863,21.09345,0,
786500,Rakovica,Rakovica,RS,44.74194,20.44139,0,
786624,Rača,Raca,RS,44.22712,20.97754,0,
787078,Petrovac,Petrovac,RS,44.37694,21.41917,0,
787607,Novi Beograd,Novi Beograd,RS,44.80556,20.42417,0,
787610,Novi Bečej,Novi Becej,RS,45.59861,20.13556,0,
787893,Mladenovac,Mladenovac,RS,44.43861,20.69917,0,
788026,Merošina,Merosina,RS,43.28358,21.7204,0,
788218,Malo Crniće,Malo Crnice,RS,44.55611,21.28556,0,
788937,Kučevo,Kucevo,RS,44.4775,21.67,0,
789485,Kladovo,Kladovo,RS,44.61147,22.60955,0,
790132,Grocka,Grocka,RS,44.67152,20.71648,0,
790795,Gadžin Han,Gadzin Han,RS,43.22278,22.03194,0,
791373,Doljevac,Doljevac,RS,43.19817,21.83258,0,
791487,Dimitrovgrad,Dimitrovgrad,RS,43.01417,22.77556,0,
791516,Despotovac,Despotovac,RS,44.0925,21.44694,0,
791704,Čukarica,Cukarica,RS,44.7825,20.42028,0,
791840,Crna Trava,Crna Trava,RS,42.80988,22.29881,0,
792470,Boljevac,Boljevac,RS,43.83028,21.95306,0,
792784,Bela Palanka,Bela Palanka,RS,43.21833,22.31111,0,
792830,Batočina,Batocina,RS,44.15361,21.08167,0,
792892,Barajevo,Barajevo,RS,44.57889,20.41583,0,
793138,Aleksinac,Aleksinac,RS,43.54167,21.70778,0,
793171,Ada,Ada,RS,45.8025,20.12583,0,
834855,Niška Banja,Niska Banja,RS,43.29507,22.0057,0,
845271,Voždovac,Vozdovac,RS,44.77833,20.47583,0,
845667,Zvezdara,Zvezdara,RS,44.77465,20.53207,0,
865958,Savski Venac,Savski Venac,RS,44.77917,20.45389,0,
865964,Palilula,Palilula,RS,44.81167,20.51611,0,
865971,Stari Grad,Stari Grad,RS,44.81789,20.46186,0,
3189166,Temerin,Temerin,RS,45.40861,19.88917,0,
3190169,Srbobran,Srbobran,RS,45.55389,19.80278,0,
3194209,Odžaci,Odzaci,RS,45.50667,19.26111,0,
3195707,Mali Iđoš,Mali Igos,RS,45.70833,19.66528,0,
3196973,Kula,Kula,RS,45.60889,19.52639,0,
3204289,Beočin,Beocin,RS,45.20829,19.72063,0,
3204692,Bač,Bac,RS,45.39194,19.23667,0,
12750082,Pirot Centralni Trg,Pirot Centralni Trg,RS,43.15635,22.58515,0,
